     2.10           OBSERVATION DATA    G (GPS)             RINEX VERSION / TYPE
DAT2RINW 3.10 001   hsx                 09AUG07 22:53:26    PGM / RUN BY / DATE 
hsx                 sgg                                     OBSERVER / AGENCY   
220203906           TRIMBLE 4700        Nav 1.30 Sig 0.00   REC # / TYPE / VERS 
00000000            TRM33429.00-GP                          ANT # / TYPE        
----------------------------------------------------------- COMMENT             
Offset from BOTTOM OF ANTENNA to PHASE CENTER is  62.5 mm   COMMENT             
----------------------------------------------------------- COMMENT             
39062211                                                    MARKER NAME         
3906                                                        MARKER NUMBER       
 -2182775.5228  4385719.5412  4070671.5482                  APPROX POSITION XYZ 
        0.0000        0.0000        0.0000                  ANTENNA: DELTA H/E/N
*** Above antenna height is from mark to PHASE CENTER.      COMMENT             
----------------------------------------------------------- COMMENT             
Note: The above height is to the antenna phase center.      COMMENT             
      The RINEX specification calls for this to be the      COMMENT             
      height from the bottom surface of the antenna mount   COMMENT             
      to the survey mark.                                   COMMENT             
Note: The above offsets are CORRECTED.                      COMMENT             
Raw Offsets: H=      0.0000 E=      0.0000 N=      0.0000   COMMENT             
----------------------------------------------------------- COMMENT             
     1     1     0                                          WAVELENGTH FACT L1/2
     4    L1    C1    L2    P2                              # / TYPES OF OBSERV 
    15.000                                                  INTERVAL            
  2007     8     9     7     3   45.0000000                 TIME OF FIRST OBS   
  2007     8     9    14    48   15.0000000                 TIME OF LAST OBS    
     0                                                      RCV CLOCK OFFS APPL 
    18                                                      # OF SATELLITES     
     1   189   189   185   185                              PRN / # OF OBS      
     3  1113  1117  1101  1101                              PRN / # OF OBS      
     6    60    71     0     0                              PRN / # OF OBS      
     7   105   112    63    63                              PRN / # OF OBS      
     8   942   950   873   873                              PRN / # OF OBS      
     9    11    14     0     0                              PRN / # OF OBS      
    11  1215  1215  1210  1210                              PRN / # OF OBS      
    13   570   583   476   478                              PRN / # OF OBS      
    16   730   738   693   693                              PRN / # OF OBS      
    17   502   521   404   404                              PRN / # OF OBS      
    19  1386  1388  1360  1360                              PRN / # OF OBS      
    20   624   625   608   608                              PRN / # OF OBS      
    21    61    90     0     0                              PRN / # OF OBS      
    23   572   581   537   537                              PRN / # OF OBS      
    25  1130  1135  1111  1113                              PRN / # OF OBS      
    27   991  1008   938   942                              PRN / # OF OBS      
    28   819   820   801   801                              PRN / # OF OBS      
    31   410   423   369   374                              PRN / # OF OBS      
                                                            END OF HEADER       
 07  8  9  7  3 45.0000000  0  6  1  3  7 16 23 31
    701001.25616  22376730.94506    517487.48157  22376727.72347
   -539742.70716  22526415.75006   -405976.92357  22526411.81647
    577011.21216  23643268.85906    425802.52656  23643264.40646
    190016.33317  20218317.13307    137862.21459  20218311.98449
   -226311.60317  21353428.86707   -172483.73258  21353422.11748
    410547.28917  21585564.73407    301596.25058  21585560.44148
 07  8  9  7  4  0.0000000  0  6  1  3  7 16 23 31
    759333.17006  22387832.29706    562940.91048  22387827.60948
   -583915.03905  22518009.08605   -440396.86747  22518006.89147
    625152.28505  23652428.50005    463315.01147  23652425.46147
    206295.61406  20221415.10906    150547.36749  20221409.33249
   -244138.32306  21350037.04706   -186374.68448  21350029.22348
    444870.12506  21592096.82806    328341.30448  21592091.80548
 07  8  9  7  4 15.0000000  0  6  1  3  7 16 23 31
    817758.80506  22398949.37506    608467.37247  22398945.69147
   -628009.27305  22509618.03105   -474756.00347  22509616.34447
    673393.26504  23661608.41404    500905.38646  23661605.49246
    222686.39506  20224534.28106    163319.39849  20224528.22349
   -261813.67506  21346672.62506   -200147.67648  21346664.91448
    479276.11906  21598643.89106    355151.15148  21598638.68448
 07  8  9  7  4 30.0000000  0  6  1  3  7 16 23 31
    876274.14206  22410084.43806    654063.69247  22410080.80947
   -672028.89306  22501242.05506   -509056.98047  22501239.42247
    721730.25606  23670807.14106    538570.57046  23670803.54746
    239184.84207  20227673.35207    176175.31849  20227667.91849
   -279341.21307  21343337.52307   -213805.48848  21343330.69948
    513761.52207  21605205.58607    382022.88348  21605201.25448
 07  8  9  7  4 45.0000000  0  6  1  3  7 16 23 31
    934871.49706  22421234.11706    699723.96348  22421232.32848
   -715980.87706  22492878.68006   -543305.26247  22492874.75047
    770155.62506  23680022.52306    576304.60647  23680018.01247
    255783.22707  20230832.19507    189109.12249  20230826.67649
   -296727.92307  21340028.48407   -227353.58148  21340021.49248
    548318.99707  21611781.79707    408950.76848  21611777.60248
 07  8  9  7  5  0.0000000  0  6  1  3  7 16 23 31
    993550.46106  22432400.87506    745447.78447  22432398.47347
   -759864.79205  22484526.95305   -577500.44447  22484523.76647
    818668.74106  23689255.24206    614107.04146  23689249.68046
    272481.34607  20234009.87507    202120.64849  20234004.19549
   -313973.77007  21336747.14107   -240791.93148  21336740.97348
    582948.42807  21618371.28907    435934.72648  21618367.66848
 07  8  9  7  5 15.0000000  0  6  1  3  7 16 23 31
   1052315.20006  22443583.57806    791238.46148  22443581.47748
   -803676.00106  22476188.94506   -611639.09447  22476186.53147
    867274.05405  23698503.82805    651981.31546  23698498.85546
    289283.53207  20237206.98407    215213.24249  20237201.39149
   -331074.03207  21333493.06307   -254116.77048  21333486.74248
    617654.26407  21624976.62507    462978.19648  21624971.78548
 07  8  9  7  5 30.0000000  0  7  1  3  6  7 16 23 31
   1111158.84906  22454781.02306    837090.62047  22454779.85247
   -847420.62506  22467864.96906   -645725.78447  22467861.89847
     46677.74913  24198685.46903         0.00000         0.00000
    915964.65905  23707768.11705    689921.98446  23707764.25046
    306183.05007  20240423.14107    228381.70449  20240417.29349
   -348034.83507  21330265.85907   -267332.98048  21330259.14548
    652429.91307  21631593.26607    490076.07548  21631588.94548
 07  8  9  7  5 45.0000000  0  7  1  3  6  7 16 23 31
   1170081.21806  22465994.79706    883004.12848  22465992.40648
   -891098.47806  22459554.40606   -679760.48347  22459550.50047
     99091.80601  24208656.02301         0.00000         0.00000
    964740.24305  23717049.61705    727928.93946  23717046.69946
    323179.77807  20243657.34407    241625.90349  20243651.57449
   -364855.94107  21327065.54707   -280440.34649  21327059.35249
    687275.53007  21638225.20307    517228.48748  21638219.80148
 07  8  9  7  6  0.0000000  0  7  1  3  6  7 16 23 31
   1229075.08405  22477219.93805    928973.33248  22477218.66048
   -934715.86006  22451253.60906   -713748.01547  22451249.93847
    151575.98202  24218625.77302         0.00000         0.00000
   1013593.70305  23726346.18005    765996.56146  23726343.15246
    340266.65507  20246908.71907    254940.34849  20246903.15249
   -381544.12007  21323891.12507   -293444.12448  21323883.38748
    722184.18407  21644867.42207    544430.01648  21644862.38348
 07  8  9  7  6 15.0000000  0  7  1  3  6  7 16 23 31
   1288143.74106  22488461.07806    975000.86047  22488458.75447
   -978268.88806  22442966.14806   -747685.41047  22442962.67247
         0.00000  24228625.75001         0.00000         0.00000
   1062528.26713  23735656.12503    804127.34656  23735654.43046
    357447.23007  20250177.78907    268327.80949  20250173.02749
   -398095.28407  21320741.16407   -306341.14848  21320733.05148
    757159.56907  21651523.50807    571683.54848  21651518.57448
 07  8  9  7  6 30.0000000  0  7  1  3  6  7 16 23 31
   1347286.51306  22499715.23406   1021086.10247  22499713.01247
  -1021757.74806  22434689.95306   -781572.81547  22434686.97347
    256764.52011  24238638.88301         0.00000         0.00000
   1111543.45505  23744986.14805    842320.94246  23744982.52346
    374720.74907  20253465.31307    281787.69049  20253459.30949
   -414509.72207  21317617.43007   -319131.60448  21317610.46148
    792201.25407  21658190.88307    598988.72048  21658186.53148
 07  8  9  7  6 45.0000000  0  7  1  3  6  7 16 23 31
   1406498.42306  22510983.27306   1067225.22948  22510980.85548
  -1065186.53806  22426426.38306   -815413.42047  22426422.50047
         0.00000  24248662.64101         0.00000         0.00000
   1160634.11604  23754327.07804    880573.40246  23754323.63346
    392082.49907  20256769.12507    295316.33249  20256763.87949
   -430791.86707  21314518.76607   -331819.00048  21314512.42248
    827304.63807  21664871.15607    626342.01048  21664866.56348
 07  8  9  7  7  0.0000000  0  7  1  3  6  7 16 23 31
   1465779.03506  22522263.83606   1113417.86447  22522261.03547
  -1108555.27806  22418172.44506   -849207.21447  22418169.98047
         0.00000  24258753.95303         0.00000         0.00000
   1209799.88905  23763684.55505    918884.41246  23763680.19546
    409532.15207  20260089.71107    308913.46149  20260084.46149
   -446941.47607  21311444.25807   -344403.13148  21311437.78148
    862469.48107  21671563.14107    653743.16748  21671558.39148
 07  8  9  7  7 15.0000000  0  7  1  3  6  7 16 23 31
   1525130.31905  22533558.69505   1159665.61147  22533555.77047
  -1151861.15705  22409932.53905   -882952.04347  22409928.69947
     75244.13601  24268766.97701         0.00000         0.00000
   1259042.75002  23773055.40602    957255.41746  23773051.55546
    427071.81906  20263427.27306    322580.73349  20263422.18049
   -462956.04206  21308396.75006   -356882.01348  21308391.89848
    897698.08506  21678267.55506    681194.02048  21678262.27748
 07  8  9  7  7 30.0000000  0  7  1  3  6  7 16 23 31
   1584541.18906  22544863.23406   1205959.75547  22544860.53147
  -1195114.67106  22401701.61706   -916656.04247  22401697.22747
         0.00000  24278838.71101         0.00000         0.00000
   1308351.70205  23782437.86705    995677.96246  23782434.29346
    444690.56607  20266780.28907    336309.64149  20266774.90249
   -478846.06207  21305372.91407   -369263.82348  21305368.14548
    932979.71607  21684980.73407    708686.20248  21684975.33648
 07  8  9  7  7 45.0000000  0  6  1  3  7 16 23 31
   1644013.91506  22556180.46906   1252302.12147  22556178.85547
  -1238312.99806  22393481.25006   -950317.04247  22393476.84447
   1357728.98304  23791833.38304   1034153.81046  23791830.01246
    462390.81807  20270148.52307    350102.02949  20270143.09449
   -494608.73807  21302373.25807   -381546.43948  21302366.96148
    968317.01107  21691705.69507    736221.74648  21691700.37548
 07  8  9  7  8  0.0000000  0  7  1  3  6  7 16 23 31
   1703547.42206  22567509.71106   1298691.85647  22567507.82447
  -1281456.47706  22385271.19506   -983935.30747  22385266.72347
     29834.96013  24299044.49203         0.00000         0.00000
   1407173.54904  23801241.85204   1072681.97646  23801239.18846
    480171.49207  20273532.10207    363957.08649  20273526.66449
   -510244.70807  21299399.00807   -393730.32348  21299392.24648
   1003709.01807  21698440.57807    763799.92448  21698435.14548
 07  8  9  7  8 15.0000000  0  7  1  3  6  7 16 23 31
   1763138.49006  22578848.48406   1345126.42847  22578847.55147
  -1324547.80506  22377070.67206  -1017512.96247  22377067.03147
     82905.72702  24309094.83602         0.00000         0.00000
   1456682.12805  23810663.65605   1111260.09246  23810659.59846
    498029.92807  20276930.69507    377872.74949  20276924.91849
   -525756.29907  21296446.60907   -405817.30348  21296441.03948
   1039153.04307  21705185.23407    791418.63548  21705180.18048
 07  8  9  7  8 30.0000000  0  7  1  3  6  7 16 23 31
   1822787.58706  22590199.96906   1391606.19647  22590198.73047
  -1367585.83106  22368881.57806  -1051049.05447  22368877.04747
         0.00000  24319207.78901         0.00000         0.00000
   1506255.24206  23820098.33606   1149888.49046  23820093.25046
    515966.37807  20280343.65607    391849.20149  20280338.96149
   -541142.62407  21293518.47707   -417806.65048  21293510.94548
   1074649.73707  21711939.71907    819078.40348  21711935.19148
 07  8  9  7  8 45.0000000  0  7  1  3  6  7 16 23 31
   1882493.74006  22601562.68006   1438130.47047  22601560.02347
  -1410570.74106  22360701.28106  -1084543.78347  22360696.80947
    189216.48204  24329334.76604         0.00000         0.00000
   1555891.98305  23829541.72705   1188566.45646  23829538.73846
    533979.96807  20283771.50807    405885.76849  20283766.30549
   -556404.28507  21290614.36707   -429698.84348  21290608.31648
   1110198.37907  21718704.07807    846778.62848  21718699.81648
 07  8  9  7  9  0.0000000  0  7  1  3  6  7 16 23 31
   1942252.27706  22612934.48406   1484695.54247  22612931.23847
  -1453506.65806  22352531.68006  -1118000.29447  22352525.78547
    242450.96902  24339456.31302         0.00000         0.00000
   1605587.74203  23838999.16403   1227290.40246  23838996.07446
    552066.23207  20287212.98407    419978.96649  20287208.21149
   -571545.17707  21287732.33607   -441496.94848  21287727.02748
   1145794.63307  21725478.46107    874515.95148  21725474.16048
 07  8  9  7  9 15.0000000  0  6  1  3  7 16 23 31
   2002063.38106  22624315.32006   1531301.59847  22624313.69147
  -1496392.42906  22344369.48406  -1151417.77247  22344365.15647
   1655342.56505  23848470.15605   1266060.38446  23848464.67646
    570225.61607  20290668.46907    434129.13349  20290664.07049
   -586564.52507  21284874.53907   -453200.32048  21284868.59048
   1181439.18107  21732261.14807    902290.91048  21732256.68048
 07  8  9  7  9 30.0000000  0  7  1  3  6  7 16 23 31
   2061928.00406  22635706.53906   1577949.32847  22635704.42647
  -1539226.90106  22336219.82806  -1184795.25447  22336213.99647
         0.00000  24359829.93004         0.00000         0.00000
   1705157.54005  23857949.51605   1304877.25746  23857944.63746
    588459.14807  20294138.30507    448337.08049  20294133.28549
   -601460.97207  21282040.07807   -464807.94748  21282033.44148
   1217133.12207  21739053.90607    930104.34948  21739048.94948
 07  8  9  7  9 45.0000000  0  7  1  3  6  7 16 23 31
   2121848.32606  22647109.09406   1624640.46047  22647106.95747
  -1582007.11606  22328078.41406  -1218130.48047  22328073.45347
     66150.87402  24369945.28902         0.00000         0.00000
   1755034.87505  23867439.43005   1343742.69046  23867436.03546
    606769.14707  20297622.39807    462604.60949  20297617.87149
   -616231.76607  21279229.13307   -476317.65848  21279223.82048
   1252879.01707  21745855.64107    957958.29848  21745850.60248
 07  8  9  7 10  0.0000000  0  7  1  3  6  7 16 23 31
   2181821.37205  22658521.43805   1671372.68447  22658520.14847
  -1624735.47907  22319948.43007  -1251425.29647  22319942.61347
    119595.11201  24380163.22701         0.00000         0.00000
   1804971.56704  23876939.84404   1382654.39946  23876939.25046
    625152.59207  20301120.74207    476929.36249  20301115.18049
   -630879.54207  21276441.95307   -487731.50948  21276435.33248
   1288674.23807  21752667.25807    985850.66148  21752662.97348
 07  8  9  7 10 15.0000000  0  6  1  3  7 16 23 31
   2241848.52305  22669945.01605   1718147.05247  22669943.25047
  -1667409.61806  22311828.12506  -1284677.87347  22311822.17247
   1854968.97705  23886456.64805   1421613.40846  23886453.89546
    643611.26807  20304633.82807    491312.74249  20304628.19549
   -645402.08807  21273679.25807   -499047.79348  21273672.18848
   1324520.31907  21759489.58607   1013782.66748  21759484.16448
 07  8  9  7 10 30.0000000  0  6  1  3  7 16 23 31
   2301923.34106  22681376.65606   1764958.56147  22681374.46947
  -1710035.71006  22303715.92206  -1317892.96747  22303711.70747
   1905020.83205  23895981.42205   1460614.82946  23895978.70746
    662138.85807  20308159.46907    505749.82849  20308153.93049
   -659805.13707  21270938.07807   -510270.93948  21270930.54348
   1360411.25407  21766318.12507   1041749.60548  21766313.55148
 07  8  9  7 10 45.0000000  0  7  1  3  6  7 16 23 31
   2362047.81606  22692817.96106   1811808.78847  22692815.39547
  -1752610.68806  22295612.53106  -1351068.25447  22295609.73047
     52876.85512  24410650.89802         0.00000         0.00000
   1955129.09606  23905515.60906   1499660.19946  23905513.80546
    680737.39107  20311698.67207    520242.19049  20311692.79749
   -674086.47807  21268219.89107   -521399.25348  21268212.47348
   1396349.20007  21773157.99207   1069753.18348  21773152.50448
 07  8  9  7 11  0.0000000  0  6  1  3  7 16 23 31
   2422226.34905  22704268.42205   1858701.15047  22704266.83647
  -1795129.76706  22287522.57006  -1384199.97647  22287518.76247
   2005298.12505  23915063.72705   1538752.94146  23915060.45746
    699411.48107  20315251.78907    534793.43649  20315246.18449
   -688241.04207  21265527.09407   -532428.81048  21265520.68848
   1432339.03507  21780006.36707   1097797.19648  21780000.59448
 07  8  9  7 11 15.0000000  0  7  1  3  6  7 16 23 31
   2482464.78105  22715732.26605   1905640.11847  22715729.75847
  -1837586.74306  22279443.07006  -1417283.31447  22279439.65647
     20770.47711  24431152.03101         0.00000         0.00000
   2055533.76405  23924621.75005   1577897.58946  23924619.54346
    718166.94807  20318820.95307    549408.08549  20318815.41849
   -702262.42407  21262859.28107   -543354.57448  21262850.41048
   1468386.93307  21786865.62507   1125886.45148  21786859.99648
 07  8  9  7 11 30.0000000  0  7  1  3  6  7 16 23 31
   2542760.24305  22727205.71905   1952623.58747  22727203.02347
  -1879983.52306  22271376.17206  -1450319.76447  22271371.55147
     74530.43502  24441354.32002         0.00000         0.00000
   2105833.25905  23934196.14105   1617092.00046  23934191.14846
    737001.24107  20322405.00007    564084.16549  20322399.17249
   -716152.88807  21260214.77307   -554178.30248  21260209.37148
   1504490.23307  21793735.75807   1154018.89848  21793730.81348
 07  8  9  7 11 45.0000000  0  7  1  3  6  7 16 23 31
   2603117.34006  22738691.38306   1999655.08747  22738688.66047
  -1922314.86007  22263320.72707  -1483305.21448  22263316.48448
    128350.54501  24451624.10901         0.00000         0.00000
   2156201.12805  23943779.02305   1656339.66646  23943775.67246
    755919.06207  20326004.60207    578825.32649  20325999.34849
   -729907.34507  21257597.78107   -564896.03048  21257590.71948
   1540653.91207  21800617.83607   1182198.37748  21800612.41848
 07  8  9  7 12  0.0000000  0  6  1  3  7 16 23 31
   2663534.27706  22750189.30506   2046733.17247  22750185.91847
  -1964581.96506  22255277.41406  -1516240.62047  22255273.62547
   2206635.69804  23953375.27304   1695639.29046  23953372.72746
    774918.76507  20329620.44507    593630.28549  20329614.64849
   -743527.06007  21255006.17207   -575508.82748  21254999.25848
   1576876.49507  21807510.07007   1210423.75448  21807505.91848
 07  8  9  7 12 15.0000000  0  6  1  3  7 16 23 31
   2724018.16406  22761698.39806   2093863.44447  22761696.18047
  -2006777.00407  22247247.85207  -1549119.83748  22247244.69948
   2257143.94306  23962987.60206   1734996.34346  23962984.06346
    794007.50507  20333253.06307    608504.62349  20333247.05149
   -757004.37407  21252441.15607   -586010.60348  21252436.25848
   1613165.36607  21814416.16407   1238700.78348  21814411.32048
 07  8  9  7 12 30.0000000  0  8  1  3  6  7 13 16 23 31
   2784576.61306  22773222.53906   2141051.84747  22773219.75447
  -2048891.88506  22239233.26606  -1581936.59747  22239230.62547
     59525.53113  24482423.51603         0.00000         0.00000
   2307733.62905  23972616.38305   1774416.87046  23972611.07446
    -92513.02913  23140934.14103         0.00000         0.00000
    813193.14907  20336903.71907    623454.46949  20336898.05949
   -770331.07807  21249905.14807   -596395.07248  21249897.75048
   1649528.38207  21821335.79707   1267035.60348  21821331.05548
 07  8  9  7 12 45.0000000  0  8  1  3  6  7 13 16 23 31
   2845213.05606  22784761.20306   2188300.95747  22784758.95747
  -2090922.19207  22231235.71107  -1614687.48948  22231232.83248
    113620.70801  24492719.83601         0.00000         0.00000
   2358408.23804  23982255.87504   1813903.56946  23982254.27746
   -128288.65101  23134126.00001         0.00000         0.00000
    832479.24407  20340574.26607    638482.57849  20340568.44149
   -783503.21207  21247398.14107   -606659.04448  21247393.43448
   1685969.48107  21828270.43007   1295431.23348  21828264.99648
 07  8  9  7 13  0.0000000  0  8  1  3  6  7 13 16 23 31
   2905936.62006  22796316.28106   2235618.02947  22796314.29747
  -2132858.44107  22223255.40607  -1647365.06048  22223252.55148
    167801.74513  24503029.05503         0.00000         0.00000
   2409176.82904  23991916.51604   1853463.45446  23991915.33646
   -163955.99203  23127338.03103         0.00000         0.00000
    851874.93307  20344265.15607    653596.10749  20344259.09849
   -796511.08607  21244923.44507   -616795.08048  21244916.50448
   1722498.03707  21835221.52307   1323895.04048  21835216.68848
 07  8  9  7 13 15.0000000  0  8  1  3  6  7 13 16 23 31
   2966758.12906  22807890.68806   2283011.35947  22807889.09447
  -2174689.19406  22215295.28106  -1679960.44948  22215292.37548
    222079.91405  24513358.20305         0.00000         0.00000
   2460050.24603  24001597.00803   1893105.09546  24001595.78946
   -199503.88304  23120574.66404         0.00000         0.00000
    871391.19207  20347978.76607    668803.58449  20347973.13349
   -809343.47907  21242481.07807   -626794.32948  21242475.64548
   1759124.87407  21842190.70307   1352435.42048  21842186.11348
 07  8  9  7 13 30.0000000  0  8  1  3  6  7 13 16 23 31
   3027684.91506  22819483.84406   2330486.73447  22819482.68047
  -2216406.43306  22207356.86706  -1712467.38048  22207354.34048
    276462.20602  24523710.56302         0.00000         0.00000
   2511035.91303  24011299.51603   1932834.16846  24011298.12146
   -234923.80804  23113834.32804         0.00000         0.00000
    891035.67207  20351717.16407    684110.95849  20351711.07049
   -821992.34107  21240074.43807   -636650.59248  21240068.05948
   1795857.92607  21849180.97707   1381058.55648  21849175.86748
 07  8  9  7 13 45.0000000  0  8  1  3  6  7 13 16 23 31
   3088722.07505  22831099.50005   2378048.14647  22831097.92647
  -2258004.28706  22199441.32006  -1744881.25648  22199438.69148
    330953.73603  24534074.12503         0.00000         0.00000
   2562138.94206  24021031.25806   1972654.67046  24021022.57846
   -270210.32503  23107118.53903         0.00000         0.00000
    910813.49907  20355480.46107    699522.25749  20355474.73849
   -834452.10407  21237703.96107   -646359.49248  21237697.44948
   1832702.64906  21856192.76606   1409768.73748  21856187.27748
 07  8  9  7 14  0.0000000  0  8  1  3  6  7 13 16 23 31
   3149891.62306  22842740.72706   2425712.71047  22842737.09447
  -2299460.13006  22191553.07806  -1777184.50948  22191550.42248
    385576.77002  24544472.32002         0.00000         0.00000
   2613381.24903  24030778.24203   2012583.68346  24030773.96546
   -305340.68803  23100433.10203         0.00000         0.00000
    930746.72906  20359273.96106    715054.63349  20359267.85949
   -846700.24206  21235373.17206   -655903.50049  21235367.25049
   1869681.16406  21863229.75006   1438583.14548  21863224.07448
 07  8  9  7 14 15.0000000  0  8  1  3  6  7 13 16 23 31
   3211202.99206  22854406.57806   2473487.76047  22854404.38747
  -2340763.92306  22183691.45306  -1809369.27748  22183690.05148
         0.00000  24554896.46901         0.00000         0.00000
   2664772.36303  24040556.45303   2052628.76246  24040552.96546
   -340304.91004  23093780.14104         0.00000         0.00000
    950845.13607  20363098.59407    730715.73249  20363093.36749
   -858726.68307  21233084.81307   -665274.78248  21233077.39148
   1906803.34607  21870293.26607   1467509.50148  21870288.13748
 07  8  9  7 14 30.0000000  0  8  1  3  6  7 13 16 23 31
   3272668.01006  22866103.75006   2521382.55647  22866100.82047
  -2381903.37706  22175863.89806  -1841425.95548  22175861.78548
    495256.55513  24565337.81303         0.00000         0.00000
   2716324.18303  24050365.54703   2092798.95246  24050362.44946
   -375090.41605  23087160.42205   -385299.37656  23087159.11346
    971120.62107  20366956.19507    746514.81249  20366950.66449
   -870519.20007  21230839.79707   -674463.74648  21230833.84448
   1944081.33207  21877387.77307   1496557.26148  21877382.18848
 07  8  9  7 14 45.0000000  0  8  1  3  6  7 13 16 23 31
   3334292.00006  22877830.58606   2569401.22547  22877827.60947
  -2422872.09806  22168067.20306  -1873349.61948  22168065.28148
    550331.02204  24575822.93804         0.00000         0.00000
   2768042.09105  24060211.22705   2133098.66346  24060204.35946
   -409691.06205  23080576.10205   -412260.98346  23080574.12946
    991578.76307  20370849.96107    762456.19949  20370844.01649
   -882071.75107  21228642.36707   -683465.73848  21228635.06648
   1981520.83207  21884512.01607   1525730.89148  21884506.69148
 07  8  9  7 15  0.0000000  0  8  1  3  6  7 13 16 23 31
   3396088.20606  22889589.46906   2617554.05647  22889586.55147
  -2463656.37706  22160307.08606  -1905129.55548  22160303.91448
    605576.50801  24586339.62501         0.00000         0.00000
   2819939.27604  24070084.27304   2173537.94545  24070078.96945
   -444093.02305  23074030.24205   -439067.66046  23074025.83646
   1012232.96607  20374780.21107    778550.38849  20374774.17249
   -893370.41707  21226492.10207   -692269.88848  21226486.36748
   2019135.41007  21891670.13307   1555040.92948  21891664.26248
 07  8  9  7 15 15.0000000  0  8  1  3  6  7 13 16 23 31
   3458063.38806  22901382.42206   2665846.40247  22901379.66047
  -2504248.77906  22152581.34406  -1936759.99248  22152579.56648
    660999.96101  24596877.09401         0.00000         0.00000
   2872022.54701  24079992.57001   2214122.39045  24079990.06645
   -478288.93004  23067521.75004   -465713.90546  23067518.53546
   1033090.00707  20378748.71907    794802.62849  20378743.18449
   -904408.08307  21224391.03107   -700870.66448  21224385.09048
   2056931.87007  21898863.22707   1584492.71648  21898857.32048
 07  8  9  7 15 30.0000000  0  8  1  3  6  7 13 16 23 31
   3520224.72406  22913212.85906   2714283.76447  22913209.01247
  -2544641.28206  22144895.96106  -1968234.65948  22144892.98048
    716608.70404  24607469.00004         0.00000         0.00000
   2924299.00704  24089943.36704   2254857.24245  24089938.46145
   -512271.09906  23061055.63306   -492193.48746  23061052.00446
   1054156.96407  20382757.93807    811218.43649  20382752.19549
   -915177.43007  21222341.91407   -709262.38049  21222336.63749
   2094917.86207  21906090.93807   1614092.17448  21906086.27348
 07  8  9  7 15 45.0000000  0  8  1  3  6  7 13 16 23 31
   3582572.29106  22925076.50806   2762866.24247  22925073.43047
  -2584833.46206  22137247.06306  -1999553.22348  22137244.86748
    772402.61103  24618083.57803         0.00000         0.00000
   2976768.80805  24099929.54705   2295742.77345  24099923.01245
   -546038.60906  23054631.61706   -518505.76946  23054625.76646
   1075434.29307  20386806.92207    827798.17549  20386800.48049
   -925677.45007  21220344.64807   -717444.20449  21220338.37949
   2133093.82307  21913355.05507   1643839.67548  21913350.92248
 07  8  9  7 16  0.0000000  0  8  1  3  6  7 13 16 23 31
   3645098.31806  22936975.26606   2811587.82747  22936971.52347
  -2624832.38906  22129634.94506  -2030721.20748  22129633.28948
    828374.11102  24628734.82002         0.00000         0.00000
   3029424.29705  24109979.00005         0.00000         0.00000
   -579598.55306  23048244.15606   -544656.32546  23048239.74646
   1096914.53707  20390894.38307    844536.02049  20390888.41449
   -935915.35607  21218396.72707   -725421.83348  21218388.00848
   2171452.31707  21920654.37507   1673729.39248  21920650.24648
 07  8  9  7 16 15.0000000  0  8  1  3  6  7 13 16 23 31
   3707797.85306  22948906.85206   2860444.55847  22948903.51247
  -2664642.34206  22122058.93006  -2061741.92348  22122057.10548
    884518.06301  24639419.93801         0.00000         0.00000
   3082260.53005  24120011.10905         0.00000         0.00000
   -612955.15406  23041896.28106   -570648.54847  23041892.30547
   1118592.67507  20395019.42207    861428.08349  20395013.68849
   -945895.60007  21216496.36707   -733198.63348  21216491.75848
   2209988.63707  21927987.57807   1703757.68448  21927983.69548
 07  8  9  7 16 30.0000000  0  8  1  3  6  7 13 16 23 31
   3770658.85306  22960868.35206   2909427.10847  22960865.19947
  -2704274.62906  22114517.89106  -2092624.19348  22114515.62148
    940822.73401  24650150.05501         0.00000         0.00000
   3135265.45603  24130087.50803   2419246.56856  24130083.09446
   -646119.92106  23035585.07006   -596491.19547  23035581.14847
   1140456.85507  20399179.71907    878465.09149  20399174.76249
   -955629.83807  21214643.97707   -740783.70648  21214635.87948
   2248691.14307  21935352.86707   1733915.45748  21935348.09048
 07  8  9  7 16 45.0000000  0  7  1  3  7 13 16 23 31
   3833668.97106  22972859.53906   2958525.85947  22972855.99247
  -2743741.15407  22107007.08607  -2123377.32748  22107005.54748
   3188426.71803  24140206.09403   2460670.97345  24140199.94945
   -679104.52506  23029308.03906   -622193.48647  23029303.87147
   1162494.79607  20403373.14107    895637.50649  20403368.76649
   -965129.72307  21212836.72707   -748186.26248  21212830.43848
   2287547.60207  21942747.46907   1764193.20748  21942741.69948
 07  8  9  7 17  0.0000000  0  7  1  3  7 13 16 23 31
   3896823.43706  22984876.62506   3007737.12447  22984873.74247
  -2783045.86207  22099528.19507  -2154004.34448  22099525.37148
   3241739.61504  24150350.03904   2502213.46944  24150345.36344
   -711913.14806  23023064.39806   -647758.63447  23023060.42247
   1184702.03907  20407599.19507    912941.85449  20407593.92649
   -974399.52407  21211073.53107   -755409.45349  21211066.33249
   2326553.77607  21950170.34407   1794587.60848  21950163.57048
 07  8  9  7 17 15.0000000  0  8  1  3  6  7 13 16 23 31
   3960101.73606  22996918.96906   3057044.86747  22996915.05147
  -2822208.63806  22092075.59406  -2184520.78548  22092072.95748
     98990.01711  24682434.10901         0.00000         0.00000
   3295183.64301  24160520.72701   2543858.17244  24160516.54744
   -744565.39506  23016851.60906   -673201.94147  23016847.23447
   1207058.23207  20411853.91407    930362.26649  20411848.50449
   -983459.19807  21209349.10207   -762468.97348  21209340.69148
   2365689.32806  21957616.63306   1825082.85248  21957611.18848
 07  8  9  7 17 30.0000000  0  8  1  3  6  7 13 16 23 31
   4023488.08406  23008979.77306   3106436.80147  23008977.01647
  -2861244.90006  22084647.66406  -2214938.64847  22084644.43447
         0.00000  24693253.71901         0.00000         0.00000
   3348743.18603  24170711.95303   2585592.88344  24170709.10244
   -777076.45407  23010665.08607   -698535.20947  23010659.84047
   1229547.62707  20416133.93007    947886.45949  20416127.98849
   -992324.11007  21207660.78107   -769376.70148  21207655.89148
   2404938.95607  21965085.60207   1855666.96548  21965080.73848
 07  8  9  7 17 45.0000000  0  8  1  3  6  7 13 16 23 31
   4086972.86106  23021062.16406   3155905.44147  23021057.51647
  -2900163.48706  22077241.71906  -2245264.78847  22077238.64147
    212740.47302  24704081.47702         0.00000         0.00000
   3402408.39503  24180925.91403   2627409.84845  24180920.99245
   -809455.38606  23004502.73406   -723765.53947  23004498.15647
   1252160.53407  20420436.54707    965506.92349  20420431.05149
  -1001003.34807  21206009.66407   -776139.67848  21206001.98848
   2444293.18107  21972574.42207   1886332.59248  21972569.71948
 07  8  9  7 18  0.0000000  0  7  1  3  6 13 16 23 31
   4150545.92706  23033157.78906   3205442.85647  23033154.55547
  -2938973.50506  22069856.39106  -2275506.34548  22069853.32448
    269751.95003  24714931.68003         0.00000         0.00000
   -841711.69206  22998365.28106   -748900.30447  22998360.60547
   1274887.29907  20424761.28107    983216.07249  20424756.73449
  -1009506.41207  21204393.03907   -782765.49248  21204385.76248
   2483742.19907  21980081.62507   1917072.07248  21980076.78148
 07  8  9  7 18 15.0000000  0  7  1  3  6 13 16 23 31
   4214198.60206  23045271.40606   3255042.31847  23045267.36347
  -2977683.24706  22062489.93806  -2305669.76048  22062486.56348
    326842.14101  24725793.54701         0.00000         0.00000
   -873853.30606  22992248.98406   -773945.73947  22992244.23047
   1297719.13907  20429106.24207   1001007.10849  20429101.16449
  -1017841.48607  21202806.15607   -789260.36349  21202799.84049
   2523277.64507  21987605.61707   1947878.90148  21987599.85548
 07  8  9  7 18 30.0000000  0  8  1  3  6  7 13 16 23 31
   4277919.25906  23057396.38306   3304694.72447  23057393.16847
  -3016303.86606  22055139.56306  -2335763.72747  22055137.55947
         0.00000  24736669.43801         0.00000         0.00000
     55171.47411  24211785.11701         0.00000         0.00000
   -905891.28807  22986152.72707   -798910.38047  22986147.55947
   1320644.70107  20433468.44507   1018871.19449  20433463.33249
  -1026019.74607  21201248.70307   -795632.99248  21201241.09848
   2562888.14107  21995143.15607   1978744.23248  21995137.54348
 07  8  9  7 18 45.0000000  0  7  1  3  6 13 16 23 31
   4341701.89406  23069535.35906   3354395.41046  23069530.39846
  -3054840.64406  22047806.96106  -2365792.34448  22047804.18448
    441218.12613  24747563.64103         0.00000         0.00000
   -937830.95707  22980074.54707   -823798.40347  22980069.50447
   1343658.12407  20437848.43807   1036803.71349  20437843.11749
  -1034046.67007  21199720.98407   -801887.76448  21199716.09848
   2602568.03107  22002693.35207   2009663.60148  22002687.40248
 07  8  9  7 19  0.0000000  0  7  1  3  6 13 16 23 31
   4405538.61406  23081682.12506   3404138.32047  23081677.77347
  -3093300.44406  22040488.03106  -2395761.01548  22040485.56648
    498490.02011  24758456.38301         0.00000         0.00000
   -969679.43106  22974014.09406   -848615.37247  22974009.06347
   1366751.64507  20442242.28907   1054798.66949  20442237.90249
  -1041929.52207  21198222.07807   -808030.22348  21198214.73848
   2642309.88607  22010256.48407   2040631.27848  22010250.70348
 07  8  9  7 19 15.0000000  0  7  1  3  6 13 16 23 31
   4469422.68106  23093840.36706   3453918.06847  23093834.30147
  -3131689.75406  22033183.79706  -2425674.74448  22033179.71548
    555808.45011  24769375.46101         0.00000         0.00000
  -1001442.84906  22967968.96906   -873366.07747  22967965.05147
   1389918.59507  20446651.10207   1072850.84549  20446646.21149
  -1049674.43807  21196748.73407   -814065.29348  21196740.65648
   2682107.18507  22017829.14107   2071642.15148  22017823.91048
 07  8  9  7 19 30.0000000  0  7  1  3  6 13 16 23 31
   4533349.27706  23106002.83606   3503730.94247  23105998.86347
  -3170012.44806  22025890.90606  -2455536.58348  22025887.06648
         0.00000  24780296.98401         0.00000         0.00000
  -1033125.28806  22961940.80506   -898053.67547  22961935.69947
   1413154.46207  20451072.64807   1090956.70449  20451067.30549
  -1057285.90507  21195299.82007   -819996.29049  21195294.29749
   2721955.49407  22025413.06307   2102692.75548  22025407.42648
 07  8  9  7 19 45.0000000  0  6  1  3 13 16 23 31
   4597311.47406  23118177.07006   3553571.62647  23118170.99647
  -3208274.99106  22018608.70306  -2485351.51648  22018605.58248
  -1064733.22806  22955926.49206   -922683.20947  22955920.79747
   1436452.45207  20455505.87507   1109110.98849  20455501.02749
  -1064770.52707  21193875.86707   -825828.47348  21193866.93048
   2761848.03706  22033002.70306   2133777.84648  22032998.64548
 07  8  9  7 20  0.0000000  0  7  1  3 13 16 19 23 31
   4661310.63106  23130355.27306   3603441.02846  23130350.55146
  -3246475.33706  22011339.93806  -2515118.02947  22011336.56647
  -1096264.37906  22949926.17206   -947252.93947  22949920.93447
   1459814.01807  20459952.34407   1127314.79148  20459946.84448
   -133094.89012  24745527.89802         0.00000         0.00000
  -1072126.07507  21192475.77307   -831560.07648  21192470.63348
   2801786.66607  22040602.85207   2164898.82248  22040599.04348
 07  8  9  7 20 15.0000000  0  9  1  3  6  7 13 16 19 23 31
   4725344.39506  23142540.60906   3653337.43347  23142536.21147
  -3284615.41506  22004082.64806  -2544837.52848  22004078.16048
    105097.60811  24813067.64101         0.00000         0.00000
     45604.25112  24283799.64102         0.00000         0.00000
  -1127720.41906  22943940.04706   -971764.13847  22943934.76247
   1483236.96707  20464409.38307   1145566.44949  20464403.49249
   -179587.19302  24736677.22702         0.00000         0.00000
  -1079354.44407  21191100.79707   -837192.55448  21191090.83648
   2841769.16707  22048212.26607   2196054.02248  22048207.51248
 07  8  9  7 20 30.0000000  0  9  1  3  6  7 13 16 19 23 31
   4789405.81906  23154730.56306   3703255.35347  23154726.75447
  -3322701.34907  21996834.51607  -2574514.88147  21996830.59047
    162589.78102  24824007.46902         0.00000         0.00000
     99928.64601  24294129.37501         0.00000         0.00000
  -1159107.88606  22937967.51606   -996221.89747  22937961.96547
   1506714.35307  20468876.71907   1163860.51749  20468871.61349
   -226102.83701  24727825.07801         0.00000         0.00000
  -1086462.16907  21189747.89807   -842731.10148  21189742.46148
   2881788.94007  22055826.99207   2227238.25348  22055822.54748
 07  8  9  7 20 45.0000000  0  8  1  3  6 13 16 19 23 31
   4853495.37806  23166926.11706   3753195.24647  23166923.36347
  -3360731.87806  21989598.12506  -2604149.00848  21989594.25848
    220109.47701  24834952.79701         0.00000         0.00000
  -1190425.56306  22932007.08606  -1020625.25847  22932002.51247
   1530246.84807  20473354.88307   1182197.53849  20473349.53949
   -272640.50214  24718970.44504         0.00000         0.00000
  -1093448.33107  21188418.40607   -848174.82948  21188410.13748
   2921846.78007  22063450.26607   2258452.14548  22063445.09848
 07  8  9  7 21  0.0000000  0  8  1  3  6 13 16 19 23 31
   4917611.07206  23179128.14806   3803155.50147  23179124.10947
  -3398708.59806  21982371.46906  -2633741.25048  21982367.52348
    277654.64502  24845903.90602         0.00000         0.00000
  -1221674.70206  22926061.26606  -1044975.22947  22926055.66447
   1553832.66607  20477843.19507   1200576.07449  20477837.82849
   -319201.75102  24710106.20302         0.00000         0.00000
  -1100314.34807  21187112.23407   -853524.99148  21187105.62548
   2961941.02607  22071080.03107   2289694.40448  22071075.06648
 07  8  9  7 21 15.0000000  0  9  1  3  6  7 13 16 19 23 31
   4981753.49106  23191333.38306   3853136.56447  23191329.54747
  -3436630.24506  21975155.17206  -2663290.58548  21975150.44948
    335226.07702  24856861.53102         0.00000         0.00000
    262378.47311  24325271.14101         0.00000         0.00000
  -1252854.05606  22920127.03106  -1069270.82447  22920122.66047
   1577472.55507  20482341.55507   1218996.77649  20482335.91449
   -365785.45503  24701243.03903   -281670.30555  24701241.98445
  -1107059.06707  21185828.31307   -858780.61248  21185822.41448
   3002072.65006  22078716.01606   2320965.79248  22078711.66048
 07  8  9  7 21 30.0000000  0  8  1  3  6 13 16 19 23 31
   5045922.92706  23203543.75006   3903138.69247  23203540.70347
  -3474495.54506  21967949.64106  -2692796.00748  21967945.08248
    392823.88101  24867819.59401         0.00000         0.00000
  -1283962.61406  22914208.57806  -1093511.21447  22914202.82847
   1601167.08307  20486850.60207   1237460.03549  20486844.99249
   -412390.48004  24692374.99204   -317985.81146  24692372.60946
  -1113681.76807  21184568.70307   -863941.16948  21184561.34848
   3042242.24807  22086360.43807   2352266.76948  22086356.00848
 07  8  9  7 21 45.0000000  0  8  1  3  6 13 16 19 23 31
   5110114.51106  23215759.35206   3953158.10547  23215756.16447
  -3512308.97307  21960754.47707  -2722260.99548  21960749.14148
    450443.30211  24878783.48401         0.00000         0.00000
  -1315004.63806  22908301.40606  -1117699.79547  22908296.27347
   1624911.40707  20491368.89807   1255962.10449  20491363.88749
   -459021.29105  24683500.93805   -354321.47546  24683499.02746
  -1120186.50407  21183330.41407   -869009.80848  21183323.21548
   3082445.19507  22094010.79707   2383593.71848  22094006.71948
 07  8  9  7 22  0.0000000  0  8  1  3  6 13 16 19 23 31
   5174328.68706  23227977.97706   4003195.06947  23227976.01647
  -3550069.43707  21953568.04707  -2751684.70848  21953563.82048
    508084.79312  24889759.33602         0.00000         0.00000
  -1345979.00206  22902406.22706  -1141835.67647  22902401.18047
   1648706.08207  20495896.83607   1274503.40949  20495891.68849
   -505676.75606  24674623.29706   -390676.30546  24674620.06346
  -1126572.59207  21182114.90607   -873985.93149  21182108.82049
   3122682.00507  22101668.65607   2414947.06548  22101663.35248
 07  8  9  7 22 15.0000000  0  9  1  3  6  7 13 16 19 23 31
   5238566.83206  23240202.37506   4053250.73947  23240200.12947
  -3587774.58207  21946393.15607  -2781065.32447  21946388.54347
    565749.74501  24900728.18001         0.00000         0.00000
     19635.60111  24366772.73401         0.00000         0.00000
  -1376883.72806  22896525.75806  -1165917.29047  22896520.93447
   1672552.71107  20500434.49207   1293085.19049  20500429.46149
   -552354.74306  24665740.37506   -427048.71347  24665737.50047
  -1132837.86507  21180923.71907   -878868.02848  21180915.96948
   3162954.61707  22109332.14107   2446328.29348  22109327.29348
 07  8  9  7 22 30.0000000  0  9  1  3  6  7 13 16 19 23 31
   5302830.54106  23252431.95306   4103326.30447  23252428.69147
  -3625422.56806  21939228.91406  -2810401.38048  21939224.60548
    623439.70001  24911708.46901         0.00000         0.00000
         0.00000  24377153.28901         0.00000         0.00000
  -1407716.54306  22890657.70306  -1189942.84947  22890653.91847
   1696452.94207  20504982.75807   1311708.73449  20504977.28549
   -599053.18506  24656855.00806   -463437.05047  24656851.09847
  -1138980.48506  21179752.56306   -883654.45748  21179748.41848
   3203264.99506  22117002.07806   2477738.96348  22116997.84848
 07  8  9  7 22 45.0000000  0  8  1  3  6 13 16 19 23 31
   5367117.56406  23264664.82806   4153420.05747  23264661.61747
  -3663014.82906  21932075.48406  -2839694.04648  21932071.85548
    681152.58701  24922694.60901         0.00000         0.00000
  -1438478.99506  22884803.46106  -1213913.61647  22884798.68047
   1720404.80907  20509540.34407   1330372.52949  20509535.22349
   -645773.55106  24647963.32006   -499842.48747  24647959.94947
  -1145002.29207  21178608.68007   -888346.75448  21178600.16048
   3243611.38306  22124680.37506   2509177.70448  22124675.30548
 07  8  9  7 23  0.0000000  0  8  1  3  6 13 16 19 23 31
   5431429.61106  23276904.25006   4203533.30147  23276899.61347
  -3700549.01807  21924932.60907  -2868941.44848  21924929.21548
    738890.07901  24933673.99201         0.00000         0.00000
  -1469168.71506  22878963.08606  -1237827.68847  22878958.79747
   1744410.03907  20514107.92207   1349077.90149  20514103.57849
   -692513.48706  24639070.29706   -536263.14047  24639065.73047
  -1150900.81707  21177485.66407   -892943.03748  21177479.82448
   3283995.54507  22132364.39107   2540645.86048  22132360.07448
 07  8  9  7 23 15.0000000  0  8  1  3  6 13 16 19 23 31
   5495762.16806  23289145.65606   4253662.52347  23289142.19547
  -3738029.14307  21917800.89107  -2898146.70948  21917796.25048
    796647.54402  24944665.75802         0.00000         0.00000
  -1499789.57107  22873136.97707  -1261688.09247  22873132.09447
   1768464.19907  20518686.08607   1367821.40849  20518680.69949
   -739276.85506  24630172.22706   -572702.08547  24630166.81347
  -1156680.19807  21176385.91407   -897446.42748  21176376.81648
   3324413.31006  22140056.37506   2572140.20748  22140051.62548
 07  8  9  7 23 30.0000000  0  8  1  3  6 13 16 19 23 31
   5560115.20306  23301390.08606   4303807.73947  23301387.82847
  -3775454.52007  21910679.32007  -2927309.32948  21910675.04348
    854425.15002  24955662.28102         0.00000         0.00000
  -1530340.93607  22867322.70307  -1285494.33147  22867319.04747
   1792567.51607  20523273.21907   1386603.20249  20523267.87949
   -786063.15006  24621268.35906   -609158.86647  24621263.18847
  -1162339.89807  21175308.92207   -901856.57348  21175302.87548
   3364864.96206  22147754.18806   2603660.95948  22147748.89148
 07  8  9  7 23 45.0000000  0  7  1  3 13 16 19 23 31
   5624492.93505  23313642.03105   4353972.16747  23313638.93847
  -3812820.28106  21903568.35206  -2956425.49148  21903564.92648
  -1560817.87806  22861523.80506  -1309242.60448  22861519.51648
   1816724.29506  20527869.26606   1405426.67849  20527865.06649
   -832867.61706  24612360.45306   -645629.83047  24612355.85247
  -1167875.25906  21174254.70306   -906169.84348  21174246.75048
   3405354.83806  22155459.06306   2635211.49748  22155454.22348
 07  8  9  7 24  0.0000000  0  8  1  3  6 13 16 19 23 31
   5688894.29306  23325896.37506   4404155.00947  23325894.69947
  -3850126.85707  21896469.38307  -2985495.55448  21896465.78948
    970048.98312  24977666.32802         0.00000         0.00000
  -1591220.82507  22855738.19507  -1332933.21547  22855733.67247
   1840933.80907  20532476.43007   1424291.22449  20532471.45749
   -879690.67406  24603450.00006   -682115.29647  24603446.17247
  -1173286.86307  21173225.96907   -910386.74748  21173219.19548
   3445882.49706  22163171.41406   2666791.48348  22163166.52748
 07  8  9  7 24 15.0000000  0  8  1  3  6 13 16 19 23 31
   5753316.68106  23338156.21906   4454354.23747  23338154.46947
  -3887376.12007  21889380.79707  -3014520.92948  21889377.68448
   1027894.82711  24988672.47701         0.00000         0.00000
  -1621551.71007  22849966.55507  -1356567.65647  22849962.14847
   1865193.48507  20537093.30507   1443194.86749  20537087.98049
   -926533.97806  24594537.07806   -718616.50847  24594531.88347
  -1178576.85107  21172218.50807   -914508.76148  21172211.31648
   3486445.50806  22170890.03906   2698399.01748  22170885.19548
 07  8  9  7 24 30.0000000  0  9  1  3  6  7 13 16 19 23 31
   5817758.13006  23350420.37506   4504568.28147  23350417.60547
  -3924569.48807  21882302.60907  -3043502.76848  21882299.82048
   1085759.22401  24999688.27301         0.00000         0.00000
     65793.48711  24460472.15601         0.00000         0.00000
  -1651811.92506  22844208.23406  -1380147.04047  22844203.54347
   1889501.42307  20541718.25807   1462136.11349  20541713.37549
   -973399.07906  24585618.97706   -755134.65947  24585613.65647
  -1183746.77106  21171234.36706   -918537.30748  21171228.94948
   3527042.10006  22178615.62506   2730032.70148  22178610.17648
 07  8  9  7 24 45.0000000  0  8  1  3  6 13 16 19 23 31
   5882225.00606  23362686.47706   4554802.17547  23362685.10247
  -3961700.16907  21875237.44507  -3072435.73648  21875233.44548
   1143648.73011  25010693.65601         0.00000         0.00000
  -1681994.39007  22838464.43007  -1403665.84148  22838459.62548
   1913864.27007  20546355.04707   1481120.14049  20546349.25849
  -1020279.06806  24576696.98406   -791664.43847  24576692.59847
  -1188789.57406  21170275.13306   -922466.76048  21170268.59848
   3567679.05406  22186347.14806   2761697.85448  22186343.38348
 07  8  9  7 25  0.0000000  0  8  1  3  6 13 16 19 23 31
   5946715.25205  23374959.19505   4605054.31447  23374956.99647
  -3998769.18406  21868183.26606  -3101320.67748  21868180.25848
   1201561.50001  25021721.57801         0.00000         0.00000
  -1712100.38206  22832735.05506  -1427125.04948  22832731.25848
   1938280.04906  20551000.50806   1500145.42849  20550995.68049
  -1067175.15005  24567773.88305   -828206.80746  24567769.00846
  -1193706.90706  21169339.40606   -926298.47948  21169333.37148
   3608354.74906  22194088.53106   2793393.19348  22194083.82448
 07  8  9  7 25 15.0000000  0  8  1  3  6 13 16 19 23 31
   6011227.67706  23387235.73406   4655323.65147  23387232.53147
  -4035777.16107  21861141.00807  -3130158.05348  21861138.19548
   1259496.11201  25032748.62501         0.00000         0.00000
  -1742130.56107  22827020.98407  -1450525.18147  22827016.59847
   1962747.64307  20555657.53107   1519211.08549  20555652.11749
  -1114088.28405  24558845.93805   -864762.43346  24558842.12946
  -1198499.42207  21168428.13307   -930032.86748  21168421.59448
   3649068.11906  22201837.42206   2825117.88448  22201831.25048
 07  8  9  7 25 30.0000000  0  9  1  3  6  7 13 16 19 23 31
   6075762.52106  23399515.71906   4705610.53347  23399513.89547
  -4072723.15407  21854110.36707  -3158947.10248  21854107.52048
         0.00000  25043767.15601         0.00000         0.00000
     90833.57411  24502190.78101         0.00000         0.00000
  -1772084.10206  22821320.32006  -1473865.59647  22821316.97347
   1987267.47507  20560322.95307   1538317.44249  20560317.48449
  -1161017.12606  24549916.89106   -901330.30947  24549912.22347
  -1203166.44407  21167540.19507   -933669.52748  21167533.82448
   3689819.73706  22209590.45306   2856872.39148  22209587.11748
 07  8  9  7 25 45.0000000  0  9  1  3  6  7 13 16 19 23 31
   6140319.02306  23411800.83606   4755914.27447  23411798.94547
  -4109607.31907  21847091.53907  -3187688.01748  21847088.45348
   1375431.14301  25054806.49201         0.00000         0.00000
    145820.89901  24512640.70301         0.00000         0.00000
  -1801960.96506  22815634.96106  -1497146.24847  22815631.06347
   2011839.00807  20564999.00807   1557464.09849  20564993.49649
  -1207961.95105  24540983.68005   -937910.62646  24540978.70746
  -1207708.22007  21166675.82007   -937208.57949  21166668.46549
   3730609.25906  22217353.06306   2888656.39248  22217348.48048
 07  8  9  7 26  0.0000000  0  9  1  3  6  7 13 16 19 23 31
   6204891.01605  23424087.31305   4806230.08047  23424086.78947
  -4146435.31807  21840083.01607  -3216385.13748  21840079.83248
   1433424.62611  25065844.94501         0.00000         0.00000
         0.00000  24523105.46101         0.00000         0.00000
  -1831766.69207  22809964.96107  -1520371.49147  22809959.56647
   2036456.13507  20569683.21907   1576646.27249  20569677.40249
  -1254928.17306  24532045.37506   -974507.60947  24532041.58247
  -1212130.46707  21165833.50007   -940654.48448  21165828.19148
   3771430.73206  22225121.50806   2920465.31148  22225116.46948
 07  8  9  7 26 15.0000000  0  7  1  3 13 16 19 23 31
   6269486.22205  23436381.31305   4856563.98447  23436379.12547
  -4183198.93606  21833087.71106  -3245032.08348  21833083.73448
  -1861492.77506  22804306.79706  -1543534.64947  22804302.59847
   2061126.83006  20574378.38306   1595870.18149  20574372.16049
  -1301907.51705  24523106.05505  -1011114.83346  24523101.42646
  -1216424.89706  21165016.74206   -944000.78648  21165010.77748
   3812292.22106  22232896.91406   2952305.40848  22232891.85948
 07  8  9  7 26 30.0000000  0  8  1  3  7 13 16 19 23 31
   6334101.13906  23448675.99206   4906913.17647  23448674.29347
  -4219900.75007  21826103.43007  -3273630.91348  21826099.35548
         0.00000  24544069.64101         0.00000         0.00000
  -1891141.97206  22798665.27306  -1566637.91247  22798660.68847
   2085847.67007  20579082.26607   1615133.17749  20579076.56349
  -1348903.03905  24514163.34405  -1047734.62346  24514158.09446
  -1220594.58007  21164223.85907   -947249.92049  21164217.49249
   3853190.54606  22240679.40606   2984174.21648  22240673.93048
 07  8  9  7 26 45.0000000  0  8  1  3  7 13 16 19 23 31
   6398738.50706  23460976.89806   4957279.94047  23460974.78147
  -4256537.25907  21819131.78907  -3302178.80048  21819128.64548
    366046.52111  24554550.71101         0.00000         0.00000
  -1920711.05606  22793038.25006  -1589678.75047  22793034.28547
   2110621.58307  20583796.15607   1634437.53649  20583790.35549
  -1395911.25505  24505217.97705  -1084364.40246  24505213.40646
  -1224636.30807  21163454.09407   -950399.32648  21163447.72348
   3894128.81306  22248469.04706   3016074.15648  22248464.67248
 07  8  9  7 27  0.0000000  0  8  1  3  7 13 16 19 23 31
   6463397.35206  23473280.70306   5007663.41647  23473278.92647
  -4293109.02607  21812172.47707  -3330676.27248  21812168.31648
    421178.39612  24565043.89802         0.00000         0.00000
  -1950200.31806  22787426.63306  -1612657.37047  22787422.39147
   2135447.87307  20588520.95307   1653782.69449  20588514.92249
  -1442932.43806  24496269.65606  -1121004.21247  24496265.03547
  -1228550.44107  21162709.13307   -953449.28448  21162702.89148
   3935106.29306  22256267.95306   3048004.65248  22256262.25848
 07  8  9  7 27 15.0000000  0  8  1  3  7 13 16 19 23 31
   6528076.66706  23485587.71106   5058062.78947  23485587.20747
  -4329616.44007  21805225.25807  -3359123.61248  21805221.94548
    476339.30601  24575559.56301         0.00000         0.00000
  -1979610.21807  22781829.39807  -1635574.16547  22781825.50447
   2160325.52207  20593254.43007   1673167.87049  20593248.97349
  -1489966.93806  24487319.11706  -1157654.40447  24487315.04747
  -1232337.80307  21161989.81307   -956400.47448  21161982.53148
   3976122.34606  22264071.91406   3079965.21148  22264068.02748
 07  8  9  7 27 30.0000000  0  8  1  3  7 13 16 19 23 31
   6592780.96006  23497900.82006   5108481.72747  23497899.71147
  -4366054.14807  21798291.21107  -3387516.63448  21798288.55948
    531533.54401  24586127.54701         0.00000         0.00000
  -2008935.47706  22776249.68806  -1658425.01747  22776244.94547
   2185259.36607  20597999.69507   1692596.83149  20597993.52349
  -1537009.66906  24478366.52306  -1194311.05347  24478362.66447
  -1235992.91607  21161292.03907   -959248.62348  21161286.77048
   4017181.59806  22271887.11706   3111959.41448  22271881.33648
 07  8  9  7 27 45.0000000  0  8  1  3  7 13 16 19 23 31
   6657504.46106  23510217.94506   5158915.58547  23510216.24647
  -4402427.46207  21791369.48407  -3415859.44348  21791366.46948
    586755.61401  24596635.27301         0.00000         0.00000
  -2038181.26007  22770683.97707  -1681213.94247  22770679.78547
   2210243.62107  20602753.77307   1712065.09249  20602748.45749
  -1584065.72106  24469412.98406  -1230978.01947  24469408.34447
  -1239521.34207  21160621.03107   -961998.06149  21160615.21149
   4058278.67006  22279706.50806   3143983.08848  22279701.84448
 07  8  9  7 28  0.0000000  0  7  1  3 13 16 19 23 31
   6722254.56905  23522540.51605   5209370.11946  23522537.98846
  -4438728.38806  21784461.50806  -3444145.86048  21784458.82448
  -2067339.46906  22765136.03906  -1703934.63147  22765130.46547
   2235285.73607  20607519.21907   1731578.41649  20607514.28949
  -1631127.14106  24460457.59406  -1267649.26647  24460452.82047
  -1242915.36607  21159975.22707   -964642.73548  21159969.07448
   4099421.38906  22287535.85906   3176042.34148  22287531.11748
 07  8  9  7 28 15.0000000  0  7  1  3 13 16 19 23 31
   6787027.22306  23534865.50006   5259842.29646  23534864.82846
  -4474960.07207  21777567.82807  -3472378.31948  21777564.12948
  -2096413.32006  22759603.50006  -1726589.57247  22759598.28547
   2260382.06507  20612294.54707   1751133.99549  20612289.62949
  -1678197.10906  24451499.35906  -1304327.05847  24451496.15247
  -1246178.24107  21159355.42207   -967185.28148  21159348.72348
   4140606.12206  22295373.14106   3208134.35748  22295367.74648
 07  8  9  7 28 30.0000000  0  8  1  3  7 13 16 19 23 31
   6851822.12905  23547196.07005   5310331.81946  23547194.18046
  -4511122.86406  21770685.07806  -3500557.12448  21770682.08248
     53104.25811  24628117.88301         0.00000         0.00000
  -2125403.04106  22754087.09406  -1749178.98847  22754081.48847
   2285532.10107  20617080.75007   1770731.42449  20617075.50449
  -1725275.71905  24442541.27305  -1341011.72147  24442537.91847
  -1249310.09807  21158759.07007   -969625.63048  21158752.12148
   4181832.34906  22303217.16406   3240258.67148  22303213.02748
 07  8  9  7 28 45.0010000  0  8  1  3  7 13 16 19 23 31
   6916636.17606  23559529.26306   5360836.22747  23559527.86847
  -4547224.78107  21763815.25507  -3528688.46348  21763812.48148
    108451.30301  24638662.72401         0.00000         0.00000
  -2154316.51207  22748585.03607  -1771708.95647  22748579.70047
   2310730.92007  20621875.79407   1790366.85449  20621870.64649
  -1772372.22106  24433577.88806  -1377710.22447  24433575.95447
  -1252317.52507  21158186.70807   -971969.11249  21158180.80249
   4223096.47006  22311069.75506   3272412.51648  22311065.10348
 07  8  9  7 29  0.0010000  0  8  1  3  7 13 16 19 23 31
   6981468.06206  23571867.58306   5411354.55847  23571865.63047
  -4583254.01907  21756958.87207  -3556763.18548  21756956.69248
         0.00000  24649187.56701         0.00000         0.00000
  -2183142.40307  22743099.68507  -1794170.69248  22743095.29048
   2335981.95607  20626680.76307   1810042.99349  20626675.54849
  -1819472.81006  24424615.08306  -1414411.90947  24424613.04847
  -1255192.96007  21157639.04407   -974209.67948  21157631.52848
   4264399.95806  22318929.80206   3304597.04148  22318925.29048
 07  8  9  7 29 15.0010000  0  7  1  3 13 16 19 23 31
   7046320.25806  23584207.47406   5461888.73747  23584207.00947
